works
gps initialized
1
$GPGGA,182755.000,3849.6605,N,07718.3547,W,1,04,7.4,132.0,M,-33.4,M,,0000*63

1
$GPGGA,182756.000,3849.6599,N,07718.3550,W,1,05,7.3,132.3,M,-33.4,M,,0000*65

1
$GPGGA,182757.000,3849.6594,N,07718.3552,W,1,05,7.3,132.6,M,-33.4,M,,0000*6E

1
$GPGGA,182758.000,3849.6593,N,07718.3558,W,1,05,7.3,132.8,M,-33.4,M,,0000*62

1
$GPGGA,182759.000,3849.6580,N,07718.3560,W,1,05,7.3,133.1,M,-33.4,M,,0000*62

1
$GPGGA,182800.000,3849.6582,N,07718.3556,W,1,05,3.5,133.4,M,-33.4,M,,0000*61

1
$GPGGA,182801.000,3849.6585,N,07718.3552,W,1,05,3.5,133.4,M,-33.4,M,,0000*63

1
$GPGGA,182802.000,3849.6599,N,07718.3559,W,1,05,3.5,133.6,M,-33.4,M,,0000*64

1
$GPGGA,182803.000,3849.6604,N,07718.3556,W,1,05,3.5,133.6,M,-33.4,M,,0000*6D

1
$GPGGA,182804.000,3849.6607,N,07718.3552,W,1,06,1.6,133.7,M,-33.4,M,,0000*6E

1
$GPGGA,182805.000,3849.6610,N,07718.3553,W,1,06,1.6,133.8,M,-33.4,M,,0000*67

1
$GPGGA,182806.000,3849.6611,N,07718.3559,W,1,06,1.6,134.6,M,-33.4,M,,0000*66

1
$GPGGA,182807.000,3849.6613,N,07718.3561,W,1,06,1.6,135.3,M,-33.4,M,,0000*6A

1
$GPGGA,182808.000,3849.6616,N,07718.3563,W,1,06,1.6,135.7,M,-33.4,M,,0000*66

1
$GPGGA,182809.000,3849.6617,N,07718.3564,W,1,06,1.6,136.2,M,-33.4,M,,0000*67

1
$GPGGA,182810.000,3849.6617,N,07718.3557,W,1,06,1.6,136.8,M,-33.4,M,,0000*65

1
$GPGGA,182811.000,3849.6618,N,07718.3551,W,1,06,1.6,137.7,M,-33.4,M,,0000*63

1
$GPGGA,182812.000,3849.6621,N,07718.3550,W,1,06,1.6,138.3,M,-33.4,M,,0000*60

1
$GPGGA,182813.000,3849.6624,N,07718.3552,W,1,06,1.6,138.5,M,-33.4,M,,0000*60

1
$GPGGA,182814.000,3849.6627,N,07718.3554,W,1,06,1.6,138.5,M,-33.4,M,,0000*62

1
$GPGGA,182815.000,3849.6633,N,07718.3555,W,1,06,1.6,138.3,M,-33.4,M,,0000*61

1
$GPGGA,182816.000,3849.6644,N,07718.3558,W,1,06,1.6,136.0,M,-33.4,M,,0000*62

1
$GPGGA,182817.000,3849.6648,N,07718.3558,W,1,07,1.2,135.0,M,-33.4,M,,0000*69

1
$GPGGA,182818.000,3849.6650,N,07718.3560,W,1,07,1.2,134.7,M,-33.4,M,,0000*62

1
$GPGGA,182819.000,3849.6653,N,07718.3566,W,1,07,1.2,134.4,M,-33.4,M,,0000*65

1
$GPGGA,182820.000,3849.6656,N,07718.3568,W,1,07,1.2,134.4,M,-33.4,M,,0000*64

1
$GPGGA,182821.000,3849.6659,N,07718.3574,W,1,07,1.2,134.4,M,-33.4,M,,0000*67

1
$GPGGA,182822.000,3849.6662,N,07718.3580,W,1,07,1.2,134.6,M,-33.4,M,,0000*65

1
$GPGGA,182823.000,3849.6665,N,07718.3588,W,1,07,1.2,135.0,M,-33.4,M,,0000*6C

1
$GPGGA,182824.000,3849.6670,N,07718.3591,W,1,07,1.2,135.8,M,-33.4,M,,0000*6F

1
$GPGGA,182825.000,3849.6674,N,07718.3592,W,1,07,1.2,136.3,M,-33.4,M,,0000*61

1
$GPGGA,182826.000,3849.6678,N,07718.3590,W,1,07,1.2,136.9,M,-33.4,M,,0000*66

1
$GPGGA,182827.000,3849.6683,N,07718.3581,W,1,07,1.2,137.3,M,-33.4,M,,0000*68

1
$GPGGA,182828.000,3849.6689,N,07718.3571,W,1,07,1.2,137.8,M,-33.4,M,,0000*69

1
$GPGGA,182829.000,3849.6696,N,07718.3559,W,1,07,1.2,138.5,M,-33.4,M,,0000*6E

1
$GPGGA,182830.000,3849.6703,N,07718.3551,W,1,07,1.2,139.1,M,-33.4,M,,0000*66

1
$GPGGA,182831.000,3849.6708,N,07718.3543,W,1,07,1.2,139.4,M,-33.4,M,,0000*6A

1
$GPGGA,182832.000,3849.6709,N,07718.3534,W,1,06,1.2,139.8,M,-33.4,M,,0000*65

1
$GPGGA,182833.000,3849.6709,N,07718.3533,W,1,07,1.2,140.1,M,-33.4,M,,0000*65

1
$GPGGA,182834.000,3849.6709,N,07718.3527,W,1,07,1.2,140.7,M,-33.4,M,,0000*61

1
$GPGGA,182835.000,3849.6707,N,07718.3519,W,1,07,1.2,140.9,M,-33.4,M,,0000*6D

1
$GPGGA,182836.000,3849.6708,N,07718.3514,W,1,07,1.2,140.7,M,-33.4,M,,0000*62

1
$GPGGA,182837.000,3849.6710,N,07718.3511,W,1,07,1.2,140.7,M,-33.4,M,,0000*6F

1
$GPGGA,182838.000,3849.6713,N,07718.3509,W,1,06,1.2,140.9,M,-33.4,M,,0000*65

1
$GPGGA,182839.000,3849.6712,N,07718.3507,W,1,06,1.2,141.0,M,-33.4,M,,0000*63

1
$GPGGA,182840.000,3849.6712,N,07718.3505,W,1,06,1.2,141.0,M,-33.4,M,,0000*6F

1
$GPGGA,182841.000,3849.6716,N,07718.3499,W,1,06,1.2,141.0,M,-33.4,M,,0000*6E

1
$GPGGA,182842.000,3849.6718,N,07718.3495,W,1,07,1.2,141.0,M,-33.4,M,,0000*6E

1
$GPGGA,182843.000,3849.6721,N,07718.3491,W,1,07,1.2,141.0,M,-33.4,M,,0000*61

1
$GPGGA,182844.000,3849.6725,N,07718.3490,W,1,07,1.2,140.6,M,-33.4,M,,0000*64

1
$GPGGA,182845.000,3849.6730,N,07718.3489,W,1,07,1.2,140.4,M,-33.4,M,,0000*6B

1
$GPGGA,182846.000,3849.6734,N,07718.3487,W,1,07,1.2,140.4,M,-33.4,M,,0000*62

1
$GPGGA,182847.000,3849.6739,N,07718.3487,W,1,07,1.2,140.5,M,-33.4,M,,0000*6F

1
$GPGGA,182848.000,3849.6744,N,07718.3489,W,1,07,1.2,140.7,M,-33.4,M,,0000*66

1
$GPGGA,182849.000,3849.6750,N,07718.3491,W,1,07,1.2,140.9,M,-33.4,M,,0000*65

1
$GPGGA,182850.000,3849.6759,N,07718.3489,W,1,07,1.2,140.6,M,-33.4,M,,0000*62

1
$GPGGA,182851.000,3849.6772,N,07718.3488,W,1,07,1.2,140.2,M,-33.4,M,,0000*6F

1
$GPGGA,182852.000,3849.6779,N,07718.3489,W,1,07,1.2,140.3,M,-33.4,M,,0000*67

1
$GPGGA,182853.000,3849.6782,N,07718.3491,W,1,07,1.2,140.4,M,-33.4,M,,0000*6C

1
$GPGGA,182854.000,3849.6786,N,07718.3488,W,1,06,1.2,140.4,M,-33.4,M,,0000*66

1
$GPGGA,182855.000,3849.6788,N,07718.3484,W,1,07,1.2,140.3,M,-33.4,M,,0000*63

1
$GPGGA,182856.000,3849.6792,N,07718.3479,W,1,07,1.2,140.2,M,-33.4,M,,0000*68

1
$GPGGA,182857.000,3849.6798,N,07718.3481,W,1,07,1.2,140.4,M,-33.4,M,,0000*62

1
$GPGGA,182858.000,3849.6806,N,07718.3485,W,1,07,1.2,140.5,M,-33.4,M,,0000*60

1
$GPGGA,182859.000,3849.6815,N,07718.3492,W,1,07,1.2,140.8,M,-33.4,M,,0000*68

1
$GPGGA,182900.000,3849.6824,N,07718.3509,W,1,07,1.2,141.2,M,-33.4,M,,0000*6F

1
$GPGGA,182901.000,3849.6832,N,07718.3521,W,1,08,1.0,141.6,M,-33.4,M,,0000*6A

1
$GPGGA,182902.000,3849.6838,N,07718.3530,W,1,08,1.0,142.2,M,-33.4,M,,0000*64

1
$GPGGA,182903.000,3849.6841,N,07718.3528,W,1,07,1.0,142.6,M,-33.4,M,,0000*69

1
$GPGGA,182904.000,3849.6845,N,07718.3525,W,1,07,1.0,142.8,M,-33.4,M,,0000*69

1
$GPGGA,182905.000,3849.6850,N,07718.3520,W,1,08,1.0,142.7,M,-33.4,M,,0000*69

1
$GPGGA,182906.000,3849.6854,N,07718.3517,W,1,08,1.0,143.1,M,-33.4,M,,0000*6D

1
$GPGGA,182907.000,3849.6855,N,07718.3516,W,1,07,1.2,143.4,M,-33.4,M,,0000*64

1
$GPGGA,182908.000,3849.6858,N,07718.3517,W,1,07,1.2,143.9,M,-33.4,M,,0000*6A

1
$GPGGA,182909.000,3849.6861,N,07718.3510,W,1,06,1.2,144.1,M,-33.4,M,,0000*68

1
$GPGGA,182910.000,3849.6863,N,07718.3508,W,1,07,1.2,144.5,M,-33.4,M,,0000*6E

1
$GPGGA,182911.000,3849.6868,N,07718.3513,W,1,07,1.2,144.9,M,-33.4,M,,0000*62

1
$GPGGA,182912.000,3849.6871,N,07718.3519,W,1,07,1.2,145.3,M,-33.4,M,,0000*68

1
$GPGGA,182913.000,3849.6876,N,07718.3526,W,1,07,1.2,145.5,M,-33.4,M,,0000*64

1
$GPGGA,182914.000,3849.6881,N,07718.3538,W,1,07,1.2,145.9,M,-33.4,M,,0000*68

1
$GPGGA,182915.000,3849.6887,N,07718.3573,W,1,07,1.2,146.5,M,-33.4,M,,0000*6F

1
$GPGGA,182916.000,3849.6894,N,07718.3595,W,1,07,1.2,147.0,M,-33.4,M,,0000*62

1
$GPGGA,182917.000,3849.6899,N,07718.3611,W,1,07,1.2,147.4,M,-33.4,M,,0000*65

1
$GPGGA,182918.000,3849.6904,N,07718.3618,W,1,07,1.2,148.0,M,-33.4,M,,0000*6D

1
$GPGGA,182919.000,3849.6907,N,07718.3623,W,1,06,1.2,148.6,M,-33.4,M,,0000*60

1
$GPGGA,182920.000,3849.6909,N,07718.3631,W,1,06,1.2,149.2,M,-33.4,M,,0000*62

1
$GPGGA,182921.000,3849.6905,N,07718.3640,W,1,07,1.2,149.5,M,-33.4,M,,0000*6F

1
$GPGGA,182922.000,3849.6904,N,07718.3650,W,1,06,1.4,149.6,M,-33.4,M,,0000*68

1
$GPGGA,182923.000,3849.6908,N,07718.3658,W,1,06,1.4,149.3,M,-33.4,M,,0000*68

1
$GPGGA,182924.000,3849.6925,N,07718.3684,W,1,07,1.2,146.6,M,-33.4,M,,0000*6C

1
$GPGGA,182925.000,3849.6947,N,07718.3709,W,1,06,1.4,144.5,M,-33.4,M,,0000*6B

1
$GPGGA,182926.000,3849.6964,N,07718.3726,W,1,06,1.4,143.6,M,-33.4,M,,0000*60

1
$GPGGA,182927.000,3849.6974,N,07718.3735,W,1,06,1.4,143.5,M,-33.4,M,,0000*61

1
$GPGGA,182928.000,3849.6984,N,07718.3740,W,1,06,1.4,143.5,M,-33.4,M,,0000*63

1
$GPGGA,182929.000,3849.6994,N,07718.3746,W,1,06,1.4,143.6,M,-33.4,M,,0000*66

1
$GPGGA,182930.000,3849.7003,N,07718.3756,W,1,06,1.4,143.7,M,-33.4,M,,0000*68

1
$GPGGA,182931.000,3849.7014,N,07718.3763,W,1,07,1.2,143.9,M,-33.4,M,,0000*60

1
$GPGGA,182932.000,3849.7023,N,07718.3766,W,1,07,1.2,143.8,M,-33.4,M,,0000*63

1
$GPGGA,182933.000,3849.7031,N,07718.3767,W,1,07,1.2,143.9,M,-33.4,M,,0000*61

1
$GPGGA,182934.000,3849.7040,N,07718.3766,W,1,06,1.4,143.9,M,-33.4,M,,0000*66

1
$GPGGA,182935.000,3849.7042,N,07718.3771,W,1,06,1.4,143.9,M,-33.4,M,,0000*63

1
$GPGGA,182936.000,3849.7046,N,07718.3776,W,1,06,1.4,144.0,M,-33.4,M,,0000*6D

1
$GPGGA,182937.000,3849.7049,N,07718.3781,W,1,06,1.4,144.0,M,-33.4,M,,0000*6B

1
$GPGGA,182938.000,3849.7057,N,07718.3785,W,1,05,3.5,144.1,M,-33.4,M,,0000*6E

1
$GPGGA,182939.000,3849.7068,N,07718.3790,W,1,05,3.5,144.5,M,-33.4,M,,0000*63

1
$GPGGA,182940.000,3849.7080,N,07718.3795,W,1,06,1.4,144.7,M,-33.4,M,,0000*6C

1
$GPGGA,182941.000,3849.7090,N,07718.3803,W,1,07,1.2,144.9,M,-33.4,M,,0000*65

